City_ID,City,Country,Lat,Lng,Max Temp,Humidity,Cloudiness,Wind Speed,Current Description
0,Erzin,TR,36.9559,36.2,79.47,86,68,9.33,broken clouds
1,Rikitea,PF,-23.1203,-134.9692,68.4,73,93,12.97,overcast clouds
2,Praia Da Vitoria,PT,38.7333,-27.0667,74.34,71,21,7.05,few clouds
3,Guarapari,BR,-20.6667,-40.4975,69.89,74,100,7.74,overcast clouds
4,Saint George,US,37.1041,-113.5841,84.79,45,2,3.0,clear sky
5,Xining,CN,36.6167,101.7667,61.72,83,99,2.19,overcast clouds
6,Puerto Colombia,CO,10.9878,-74.9547,80.53,78,100,3.67,overcast clouds
7,Flinders,AU,-34.5833,150.8552,46.26,76,5,10.29,clear sky
8,Teya,RU,60.3778,92.6267,46.08,72,100,3.18,overcast clouds
9,Aspros,GR,40.9,22.6309,83.98,51,79,7.4,broken clouds
10,Yellowknife,CA,62.456,-114.3525,66.56,55,27,11.99,scattered clouds
11,Butaritari,KI,3.0707,172.7902,80.78,78,36,13.04,light rain
12,Jamestown,US,42.097,-79.2353,70.52,63,99,1.01,light rain
13,Puerto Ayora,EC,-0.7393,-90.3518,66.54,98,100,8.99,overcast clouds
14,Mar Del Plata,AR,-38.0023,-57.5575,53.1,83,2,1.99,clear sky
15,Ivybridge,GB,50.3904,-3.9191,72.72,86,96,13.51,overcast clouds
16,Georgetown,MY,5.4112,100.3354,81.95,83,89,5.7,overcast clouds
17,Hithadhoo,MV,-0.6,73.0833,82.26,77,97,10.94,overcast clouds
18,Ponta Do Sol,PT,32.6667,-17.1,78.12,65,45,5.95,scattered clouds
19,Bluff,NZ,-46.6,168.3333,42.8,91,82,9.6,broken clouds
20,Hobart,AU,-42.8794,147.3294,40.05,85,53,5.17,broken clouds
21,Roma,US,43.2128,-75.4557,73.72,95,100,6.85,light rain
22,Busselton,AU,-33.65,115.3333,46.65,81,51,11.48,broken clouds
23,Esperance,AU,-33.8667,121.9,54.45,60,77,9.19,broken clouds
24,Bredasdorp,ZA,-34.5322,20.0403,54.63,76,23,6.87,few clouds
25,Moen,NO,69.1304,18.6123,55.87,66,75,7.07,broken clouds
26,Behshahr,IR,36.6923,53.5526,76.59,65,0,4.09,clear sky
27,Lompoc,US,34.6391,-120.4579,68.18,62,14,5.06,few clouds
28,Coquimbo,CL,-29.9533,-71.3436,58.53,74,38,3.87,scattered clouds
29,Pinheiro Machado,BR,-31.5783,-53.3811,55.06,71,3,5.88,clear sky
30,Cape Town,ZA,-33.9258,18.4232,62.28,64,7,10.0,clear sky
31,East London,ZA,-33.0153,27.9116,61.9,70,13,5.3,few clouds
32,Port Alfred,ZA,-33.5906,26.891,56.17,85,64,7.05,broken clouds
33,Leningradskiy,RU,69.3833,178.4167,37.35,84,0,12.35,clear sky
34,Usinsk,RU,65.9939,57.5281,66.45,46,26,8.86,scattered clouds
35,Hamilton,US,39.1834,-84.5333,74.89,85,0,3.0,clear sky
36,Qaanaaq,GL,77.484,-69.3632,36.81,63,24,4.18,few clouds
37,Souillac,MU,-20.5167,57.5167,70.9,75,13,12.84,few clouds
38,Lavrentiya,RU,65.5833,-171.0,36.05,77,2,2.1,clear sky
39,Mahebourg,MU,-20.4081,57.7,71.26,74,29,14.94,light rain
40,Mataura,NZ,-46.1927,168.8643,42.48,98,27,2.53,scattered clouds
41,Benguela,AO,-12.5763,13.4055,73.67,72,13,9.57,few clouds
42,Olutanga,PH,7.3106,122.8464,83.14,73,100,6.93,overcast clouds
43,Punta Arenas,CL,-53.15,-70.9167,42.12,65,59,6.87,broken clouds
44,Mayo,US,38.8876,-76.5119,85.46,82,13,3.0,few clouds
45,Ushuaia,AR,-54.8,-68.3,39.0,74,15,2.62,few clouds
46,Folkestone,GB,51.0833,1.1833,74.1,79,92,7.0,overcast clouds
47,Vestmannaeyjar,IS,63.4427,-20.2734,51.42,84,100,14.92,overcast clouds
48,Clearlake,US,38.9582,-122.6264,81.18,37,0,4.25,clear sky
49,Lagoa,PT,39.05,-27.9833,73.31,77,16,12.48,few clouds
50,Poum,NC,-20.2333,164.0167,72.93,82,96,9.66,overcast clouds
51,Nieuw Amsterdam,SR,5.8833,-55.0833,80.02,84,75,9.57,broken clouds
52,Atuona,PF,-9.8,-139.0333,75.81,64,67,13.02,broken clouds
53,Thompson,CA,55.7435,-97.8558,57.76,55,100,3.74,overcast clouds
54,Vaini,TO,-21.2,-175.2,71.49,75,17,9.28,few clouds
55,Nikolskoye,RU,59.7035,30.7861,70.9,63,60,6.71,broken clouds
56,Hongjiang,CN,27.11,109.9956,79.97,80,83,3.78,broken clouds
57,Burns Lake,CA,54.2331,-125.7533,69.13,52,78,2.06,broken clouds
58,Kapaa,US,22.0752,-159.319,72.1,78,3,10.04,clear sky
59,Hermanus,ZA,-34.4187,19.2345,60.8,74,36,12.57,scattered clouds
60,Hilo,US,19.7297,-155.09,74.28,86,48,3.0,scattered clouds
61,Chima,IN,30.6854,76.0863,83.62,73,38,1.88,scattered clouds
62,Grand Gaube,MU,-20.0064,57.6608,71.38,72,37,5.01,scattered clouds
63,Evensk,RU,61.95,159.2333,51.33,98,100,1.43,light rain
64,Rocha,UY,-34.4833,-54.3333,59.61,49,1,8.43,clear sky
65,Kavieng,PG,-2.5744,150.7967,81.16,72,42,11.52,scattered clouds
66,Naze,JP,28.3667,129.4833,80.04,87,25,8.28,scattered clouds
67,Broome,US,42.2506,-75.833,74.53,87,100,6.08,overcast clouds
68,Arraial Do Cabo,BR,-22.9661,-42.0278,68.59,58,41,8.86,scattered clouds
69,Rajapur,IN,25.3833,81.15,80.78,73,16,10.98,few clouds
70,Yablonovo,RU,50.8523,37.3574,82.76,22,36,12.08,scattered clouds
71,Vestmanna,FO,62.1564,-7.1664,51.21,74,93,11.03,overcast clouds
72,Biak,ID,-0.9131,122.8766,74.32,86,95,8.41,overcast clouds
73,Eydhafushi,MV,5.1033,73.0708,81.54,79,78,12.28,broken clouds
74,Ko Samui,TH,9.5357,99.9357,84.06,72,89,16.67,overcast clouds
75,Morant Bay,JM,17.8815,-76.4093,87.71,68,100,8.72,overcast clouds
76,Frederick,US,39.4668,-77.3997,85.5,78,2,1.01,clear sky
77,Albany,US,42.6001,-73.9662,76.44,71,100,3.0,overcast clouds
78,Namibe,AO,-15.1961,12.1522,66.92,79,97,13.56,overcast clouds
79,Niamey,NE,13.5137,2.1098,97.23,34,51,3.29,broken clouds
80,Dallas,US,32.7668,-96.7836,74.98,97,100,4.61,very heavy rain
81,Port Hedland,AU,-20.3167,118.5667,71.53,36,0,11.34,clear sky
82,Lodingen,NO,68.414,15.9951,50.38,85,83,24.96,broken clouds
83,Latung,PH,5.5,120.8833,84.36,66,100,4.83,overcast clouds
84,Faanui,PF,-16.4833,-151.75,77.59,76,100,17.6,light rain
85,Grindavik,IS,63.8424,-22.4338,51.39,83,100,11.45,overcast clouds
86,Finnsnes,NO,69.2296,17.9811,55.76,72,80,23.06,broken clouds
87,Atar,MR,20.5169,-13.0499,104.18,20,50,6.08,scattered clouds
88,Vila Velha,BR,-20.3297,-40.2925,69.94,76,96,13.0,overcast clouds
89,Ust-Nera,RU,64.5667,143.2,52.07,97,100,2.64,light rain
90,Kouvola,FI,60.8667,26.7,64.24,96,100,3.91,overcast clouds
91,Bethel,US,41.3712,-73.414,75.02,69,100,3.36,overcast clouds
92,Upernavik,GL,72.7868,-56.1549,42.13,58,100,4.32,overcast clouds
93,Dingle,PH,10.9995,122.6711,76.08,86,100,6.17,overcast clouds
94,Tuktoyaktuk,CA,69.4541,-133.0374,37.94,72,86,8.86,overcast clouds
95,Cidreira,BR,-30.1811,-50.2056,63.05,62,0,5.08,clear sky
96,Lorengau,PG,-2.0226,147.2712,81.27,78,31,9.8,scattered clouds
97,Porto Walter,BR,-8.2686,-72.7439,86.25,33,17,3.87,few clouds
98,Veraval,IN,20.9,70.3667,80.87,89,100,19.13,overcast clouds
99,Ballina,AU,-28.8667,153.5667,55.78,86,1,11.01,clear sky
100,Tasiilaq,GL,65.6145,-37.6368,39.22,80,57,1.48,broken clouds
101,Ancud,CL,-41.8697,-73.8203,50.61,86,100,7.43,overcast clouds
102,Zvishavane,ZW,-20.3267,30.0665,65.41,38,46,6.96,scattered clouds
103,Dikson,RU,73.5069,80.5464,41.79,95,100,15.3,overcast clouds
104,Cayenne,GF,4.9333,-52.3333,81.39,73,90,2.15,overcast clouds
105,Teeli,RU,51.0333,90.2333,50.77,77,99,3.22,overcast clouds
106,Sucua,EC,-2.4667,-78.1667,76.57,54,57,4.5,light rain
107,Salalah,OM,17.0151,54.0924,75.43,96,100,2.06,overcast clouds
108,Camacha,PT,33.0833,-16.3333,69.48,83,100,16.08,overcast clouds
109,Dunedin,NZ,-45.8742,170.5036,49.8,78,43,8.01,scattered clouds
110,Maur,IN,30.0833,75.25,86.97,69,65,5.35,broken clouds
111,Visegrad,BA,43.7847,19.2992,67.05,91,81,4.23,moderate rain
112,Nyurba,RU,63.2842,118.3319,41.79,88,100,4.7,overcast clouds
113,Mafinga,TZ,-7.25,35.0667,77.29,32,15,12.33,few clouds
114,Chokurdakh,RU,70.6333,147.9167,56.25,85,100,6.17,overcast clouds
115,Bengkulu,ID,-3.8004,102.2655,75.45,90,56,4.0,broken clouds
116,Chuy,UY,-33.6971,-53.4616,58.55,69,0,8.9,clear sky
117,Carquefou,FR,47.2982,-1.4902,76.14,74,94,3.0,overcast clouds
118,Torbay,CA,47.6666,-52.7314,73.89,75,2,13.0,clear sky
119,Samarinda,ID,-0.5,117.15,73.72,98,96,2.73,overcast clouds
120,Haines Junction,CA,60.7522,-137.5108,53.13,70,61,0.47,broken clouds
121,Carnarvon,AU,-24.8667,113.6333,71.2,35,9,20.0,clear sky
122,Imbituba,BR,-28.24,-48.6703,67.08,80,3,17.0,clear sky
123,Collie,AU,-33.3667,116.15,40.24,90,28,5.79,scattered clouds
124,Castro,BR,-24.7911,-50.0119,62.64,66,67,5.1,broken clouds
125,Iqaluit,CA,63.7506,-68.5145,45.7,81,100,21.0,overcast clouds
126,Hluti,SZ,-27.2167,31.6167,64.36,38,0,4.47,clear sky
127,Nouadhibou,MR,20.931,-17.0347,71.85,89,32,16.73,scattered clouds
128,Kruisfontein,ZA,-34.0033,24.7314,56.88,83,47,5.32,scattered clouds
129,Saint-Felicien,CA,48.6501,-72.4491,73.69,69,90,0.94,overcast clouds
130,Port Elizabeth,ZA,-33.918,25.5701,59.09,84,59,4.0,broken clouds
131,Kodiak,US,57.79,-152.4072,52.57,99,100,16.2,moderate rain
132,Nome,US,64.5011,-165.4064,46.58,86,6,5.93,clear sky
133,San Antonio,US,29.4241,-98.4936,87.19,72,100,1.01,overcast clouds
134,Barcelos,PT,41.5388,-8.6151,96.91,39,68,14.03,broken clouds
135,Aklavik,CA,68.2191,-135.0107,37.74,82,100,4.0,overcast clouds
136,Urshelskiy,RU,55.6783,40.2169,74.93,46,100,3.0,overcast clouds
137,Scicli,IT,36.7902,14.7014,80.4,58,89,8.61,overcast clouds
138,Launceston,AU,-41.45,147.1667,40.15,91,100,1.86,overcast clouds
139,Poronaysk,RU,49.2167,143.1167,60.98,90,100,6.17,light rain
140,Marawi,PH,7.9986,124.2928,69.28,90,100,5.26,overcast clouds
141,Santa Isabel,BR,-23.3156,-46.2214,71.85,45,37,4.85,scattered clouds
142,Santa Cruz,BO,-17.8,-63.1667,80.51,17,68,3.89,broken clouds
143,Batemans Bay,AU,-35.7167,150.1833,56.1,69,6,7.56,clear sky
144,Saint Anthony,US,45.0205,-93.218,79.83,59,58,1.99,broken clouds
145,Saint-Philippe,RE,-21.3585,55.7679,72.21,75,42,8.79,scattered clouds
146,Vanimo,PG,-2.6741,141.3028,77.27,90,57,8.48,broken clouds
147,Barrow,US,71.2906,-156.7887,34.9,80,100,21.99,overcast clouds
148,Damghan,IR,36.1683,54.348,77.52,34,0,6.22,clear sky
149,Lishui,CN,28.4604,119.9103,83.88,71,100,2.42,overcast clouds
150,Diban,SY,35.0365,40.5167,97.74,16,0,7.54,clear sky
151,Asosa,ET,10.0667,34.5333,62.02,93,99,1.48,moderate rain
152,Luderitz,NA,-26.6481,15.1594,68.74,44,1,5.68,clear sky
153,Katsuura,JP,35.1333,140.3,77.14,93,81,0.72,broken clouds
154,Borba,BR,-4.3878,-59.5939,95.43,27,77,4.63,broken clouds
155,Havre-Saint-Pierre,CA,50.2334,-63.5986,63.52,95,100,9.35,overcast clouds
156,Maua,BR,-23.6678,-46.4614,66.36,57,40,7.31,scattered clouds
157,Saldanha,ZA,-33.0117,17.9442,57.76,79,3,14.97,clear sky
158,Mporokoso,ZM,-9.3727,30.125,74.5,25,54,5.7,broken clouds
159,Thai Binh,VN,20.45,106.3333,82.2,85,100,5.44,overcast clouds
160,Jalu,LY,29.0331,21.5482,95.18,22,0,11.36,clear sky
161,Chapais,CA,49.7834,-74.8492,72.07,45,35,5.41,scattered clouds
162,Namie,JP,37.4833,141.0,76.71,94,91,3.24,overcast clouds
163,Sabang,ID,5.8933,95.3214,82.54,74,100,19.35,overcast clouds
164,Frankfort,ZA,-27.2667,28.4833,57.69,29,0,3.42,clear sky
165,Hambantota,LK,6.1241,81.1185,79.77,78,99,17.11,overcast clouds
166,Sur,OM,22.5667,59.5289,90.37,59,80,4.12,broken clouds
167,Khandyga,RU,62.6667,135.6,43.59,86,100,5.5,overcast clouds
168,Dawlatabad,AF,36.4141,64.9053,76.78,13,10,6.69,clear sky
169,Yulara,AU,-25.2406,130.9889,51.53,53,0,28.81,clear sky
170,Mayumba,GA,-3.432,10.6554,72.28,89,100,9.01,overcast clouds
171,Airai,TL,-8.9266,125.4092,55.04,91,46,3.94,scattered clouds
172,Floro,NO,61.5996,5.0328,58.96,77,64,7.9,broken clouds
173,Faya,SA,18.3851,42.4509,71.15,56,83,3.38,broken clouds
174,Najran,SA,17.4924,44.1277,93.2,14,53,11.25,broken clouds
175,Aykhal,RU,66.0,111.5,36.73,99,100,7.63,overcast clouds
176,Anadyr,RU,64.75,177.4833,50.0,57,100,11.01,overcast clouds
177,Victoria,HK,22.2855,114.1577,87.19,85,35,8.99,scattered clouds
178,Chachapoyas,PE,-6.2317,-77.869,65.8,45,42,5.03,scattered clouds
179,Palmer,US,42.1584,-72.3287,75.58,77,100,1.01,overcast clouds
180,Bonthe,SL,7.5264,-12.505,80.76,75,65,13.27,light rain
181,Karaton,ID,-6.3424,106.1045,74.35,92,45,0.36,scattered clouds
182,Bathsheba,BB,13.2167,-59.5167,82.94,75,97,12.95,overcast clouds
183,Ostrovnoy,RU,68.0531,39.5131,65.71,57,67,23.02,broken clouds
184,Avarua,CK,-21.2078,-159.775,74.07,74,100,13.15,overcast clouds
185,Bambous Virieux,MU,-20.3428,57.7575,71.22,74,39,15.08,light rain
186,Vanavara,RU,60.34,102.2797,38.8,94,70,3.6,broken clouds
187,Rognan,NO,67.0953,15.3878,52.88,86,97,10.89,moderate rain
188,Alice Springs,AU,-23.7,133.8833,57.22,26,0,24.96,clear sky
189,Bilibino,RU,68.0546,166.4372,51.04,94,100,3.65,overcast clouds
190,Baculin,PH,7.4525,126.5842,78.6,85,100,8.99,overcast clouds
191,Sokoto,NG,13.0609,5.239,90.18,52,90,6.73,overcast clouds
192,Hohhot,CN,40.8106,111.6522,60.98,33,27,6.96,scattered clouds
193,Buraydah,SA,26.326,43.975,102.11,11,27,7.99,scattered clouds
194,Rawson,AR,-43.3002,-65.1023,62.55,34,99,28.54,overcast clouds
195,Talnakh,RU,69.4865,88.3972,48.02,94,100,9.1,moderate rain
196,Pevek,RU,69.7008,170.3133,47.48,71,100,20.71,overcast clouds
197,Sao Joao Da Barra,BR,-21.6403,-41.0511,70.03,61,90,11.16,overcast clouds
198,Pestyaki,RU,56.7103,42.6717,72.88,56,79,5.93,broken clouds
199,Vaitape,PF,-16.5167,-151.75,77.56,76,100,17.58,light rain
200,Husavik,IS,66.0449,-17.3389,45.52,76,98,5.32,overcast clouds
201,Rio Bravo,MX,25.9833,-98.1,94.05,53,100,14.99,overcast clouds
202,Port Blair,IN,11.6667,92.75,81.05,85,100,11.86,light rain
203,Fortuna,US,40.5982,-124.1573,69.93,79,0,2.75,clear sky
204,New London,US,41.4834,-72.0662,74.19,95,100,2.35,moderate rain
205,Lebu,CL,-37.6167,-73.65,54.52,82,84,9.93,broken clouds
206,Auki,SB,-8.7676,160.7034,76.08,88,10,4.07,clear sky
207,Kaitangata,NZ,-46.2817,169.8464,39.0,95,17,4.03,few clouds
208,Laguna,US,38.421,-121.4238,79.09,71,4,1.99,clear sky
209,Tiksi,RU,71.6872,128.8694,37.72,86,99,9.95,overcast clouds
210,Fomboni,KM,-12.28,43.7425,75.94,76,0,8.16,clear sky
211,La Mana,EC,-0.9333,-79.2167,77.72,76,100,2.71,overcast clouds
212,Malartic,CA,48.1335,-78.1328,77.02,59,23,1.9,few clouds
213,Burnie,AU,-41.0667,145.9167,39.94,79,95,9.69,overcast clouds
214,Mersing,MY,2.4312,103.8405,78.22,90,59,6.04,light rain
215,Katra,IN,32.9833,74.95,77.4,80,63,4.38,broken clouds
216,Suleja,NG,9.1758,7.1808,78.48,84,100,2.19,moderate rain
217,Santa Cruz Del Sur,CU,20.7147,-77.9956,89.35,56,3,12.15,clear sky
218,Vuktyl,RU,63.8567,57.3094,64.74,52,43,4.18,scattered clouds
219,Iralaya,HN,15.0,-83.2333,82.0,79,99,7.07,overcast clouds
220,Ucluelet,CA,48.9329,-125.5528,63.09,89,79,4.83,broken clouds
221,Cabo San Lucas,MX,22.8909,-109.9124,91.62,58,91,8.23,overcast clouds
222,Llanes,ES,43.4198,-4.7549,73.17,83,93,3.42,overcast clouds
223,Kungurtug,RU,50.5994,97.5228,43.48,94,100,2.24,overcast clouds
224,San Patricio,US,28.017,-97.5169,90.91,56,93,13.67,overcast clouds
225,Baykit,RU,61.67,96.37,44.42,94,100,5.66,overcast clouds
226,Severo-Kurilsk,RU,50.6789,156.125,55.02,80,64,5.97,broken clouds
227,Tarko-Sale,RU,64.9225,77.785,57.15,72,97,8.28,overcast clouds
228,Sitka,US,57.0531,-135.33,61.38,88,100,3.31,overcast clouds
229,Puri,IN,19.8,85.85,84.87,76,100,8.57,overcast clouds
230,Smithers,CA,54.7804,-127.1743,68.05,72,95,2.48,overcast clouds
231,Sioux Lookout,CA,50.1001,-91.917,67.39,80,93,6.49,overcast clouds
232,Longyearbyen,SJ,78.2186,15.6401,43.9,65,27,8.19,scattered clouds
233,Qaqortoq,GL,60.7167,-46.0333,44.82,69,65,4.76,broken clouds
234,Zhigalovo,RU,54.8097,105.1578,49.68,89,98,3.11,overcast clouds
235,Florianopolis,BR,-27.6146,-48.5012,68.63,77,68,1.01,broken clouds
236,Tanout,NE,14.9709,8.8879,84.69,51,100,12.86,overcast clouds
237,Barcarena,BR,-1.5058,-48.6258,91.27,39,26,3.02,scattered clouds
238,Kieta,PG,-6.2167,155.6333,77.18,83,53,1.92,broken clouds
239,Walvis Bay,NA,-22.9575,14.5053,69.84,36,0,4.18,clear sky
240,Shumskiy,RU,54.8318,99.1328,49.69,87,90,2.37,overcast clouds
241,Emba,KZ,48.8264,58.1442,70.45,26,0,11.54,clear sky
242,Asfi,MA,32.2994,-9.2372,76.77,71,4,21.0,clear sky
243,Vardo,NO,70.3705,31.1107,58.55,82,98,15.32,overcast clouds
244,Werda,BW,-25.2667,23.2833,67.5,23,0,4.05,clear sky
245,Kenora,CA,49.8167,-94.4337,77.77,69,63,4.0,broken clouds
246,San Andres,CO,12.5847,-81.7006,81.52,76,100,6.15,overcast clouds
247,Nanortalik,GL,60.1432,-45.2371,43.25,78,65,8.39,broken clouds
248,Port Hawkesbury,CA,45.6169,-61.3485,77.92,78,30,10.0,scattered clouds
249,Rangapara,IN,26.8167,92.65,83.71,78,46,0.98,scattered clouds
250,Adrar,MR,20.5022,-10.0711,103.39,17,8,2.82,clear sky
251,Vaxjo,SE,56.8777,14.8091,66.58,51,100,2.82,overcast clouds
252,Nanjing,CN,32.0617,118.7778,88.57,55,100,4.25,overcast clouds
253,Oeiras,BR,-7.0253,-42.1311,94.64,23,99,8.61,overcast clouds
254,Mogadishu,SO,2.0371,45.3438,76.28,85,70,16.96,broken clouds
255,Makakilo City,US,21.3469,-158.0858,75.69,75,0,11.01,clear sky
256,Deputatskiy,RU,69.3,139.9,47.97,97,100,4.38,light rain
257,Los Llanos De Aridane,ES,28.6585,-17.9182,76.91,60,8,11.54,clear sky
258,Hope,US,33.6671,-93.5916,75.07,99,100,5.32,light rain
259,Voh,NC,-20.9667,164.7,68.88,92,95,5.5,overcast clouds
260,Gonbad-E Qabus,IR,37.25,55.1672,84.65,30,0,9.15,clear sky
261,Inhambane,MZ,-23.865,35.3833,65.86,60,0,9.86,clear sky
262,Sao Miguel Do Araguaia,BR,-13.275,-50.1628,90.39,22,13,8.32,few clouds
263,Cuauhtemoc,MX,28.4167,-106.8667,68.92,63,22,1.32,few clouds
264,Kyshtovka,RU,56.555,76.6271,51.24,77,100,5.61,overcast clouds
265,Provideniya,RU,64.3833,-173.3,46.74,72,0,0.38,clear sky
266,Nuuk,GL,64.1835,-51.7216,45.88,65,94,11.99,overcast clouds
267,Te Anau,NZ,-45.4167,167.7167,40.05,92,98,4.7,overcast clouds
268,Puerto Escondido,MX,15.85,-97.0667,86.22,64,39,4.05,scattered clouds
269,Minot,US,48.2325,-101.2963,85.24,31,56,9.06,broken clouds
270,Kedrovyy,RU,56.1667,91.8167,41.38,87,45,1.77,scattered clouds
271,Barcelona,ES,41.3888,2.159,86.72,73,19,5.01,few clouds
272,Sterling,US,39.0062,-77.4286,84.78,72,4,5.99,clear sky
273,Kantilo,IN,20.35,85.1833,83.28,74,100,1.05,overcast clouds
274,Comodoro Rivadavia,AR,-45.8667,-67.5,56.5,48,100,14.58,overcast clouds
275,Zhangye,CN,38.9342,100.4517,67.14,56,100,3.47,moderate rain
276,Meshchovsk,RU,54.3244,35.2808,70.68,64,100,8.81,overcast clouds
277,Necochea,AR,-38.5473,-58.7368,55.87,58,14,9.8,few clouds
278,Cruz,BR,-2.9178,-40.1717,90.86,43,56,15.1,broken clouds
279,Sao Filipe,CV,14.8961,-24.4956,79.7,81,100,6.76,light rain
280,Tucurui,BR,-3.7661,-49.6725,95.77,23,58,5.61,broken clouds
281,Caconda,AO,-13.7333,15.0667,81.16,10,21,4.29,few clouds
282,Coihaique,CL,-45.5752,-72.0662,47.86,94,100,8.12,light rain
283,Axim,GH,4.8699,-2.2405,77.77,79,91,11.68,overcast clouds
284,Garowe,SO,8.4054,48.4845,89.24,30,97,20.69,overcast clouds
285,Saskylakh,RU,71.9167,114.0833,45.09,73,100,6.49,overcast clouds
286,Paka,MY,4.6374,103.4368,78.82,87,61,5.84,broken clouds
287,Vezirkopru,TR,41.1436,35.4547,81.55,55,35,9.37,scattered clouds
288,Kashmor,PK,28.4333,69.5833,90.0,60,44,4.25,scattered clouds
289,General Cepeda,MX,25.3833,-101.45,77.77,52,91,1.95,overcast clouds
290,Kenai,US,60.5544,-151.2583,56.14,94,100,10.69,moderate rain
291,Bandarbeyla,SO,9.4942,50.8122,76.26,81,8,31.94,clear sky
292,Palmas De Monte Alto,BR,-14.2672,-43.1619,83.8,28,32,11.25,scattered clouds
293,Denpasar,ID,-8.65,115.2167,77.72,83,87,11.97,overcast clouds
294,Sal Rei,CV,16.1833,-22.9167,80.67,83,100,11.86,overcast clouds
295,Nantucket,US,41.2835,-70.0995,72.0,95,100,9.73,overcast clouds
296,Pangody,RU,65.85,74.4859,60.13,88,100,8.43,overcast clouds
297,Christchurch,NZ,-43.5333,172.6333,48.9,83,39,1.99,scattered clouds
298,Loa Janan,ID,-0.583,117.095,73.99,97,97,2.91,overcast clouds
299,Encheng,CN,22.1839,112.3026,79.18,91,60,3.96,broken clouds
300,Ngara,TZ,-2.5122,30.6558,71.35,40,86,4.72,overcast clouds
301,Hovd,MN,48.0056,91.6419,56.71,40,100,7.61,overcast clouds
302,Tiarei,PF,-17.5333,-149.3333,76.62,77,100,16.93,light rain
303,Riyadh,SA,24.6877,46.7219,103.21,9,15,11.25,few clouds
304,Tura,IN,25.5198,90.2201,79.41,79,97,1.48,overcast clouds
305,Dickson,US,36.077,-87.3878,81.95,76,100,1.01,overcast clouds
306,Codrington,AU,-38.2667,141.9667,45.27,68,81,18.43,broken clouds
307,Nanakuli,US,21.3906,-158.1547,77.11,69,0,9.73,clear sky
308,Itarema,BR,-2.9248,-39.9167,87.87,49,64,17.76,broken clouds
309,Tongchuan,CN,35.0806,109.0897,77.43,65,64,7.94,broken clouds
310,Khatanga,RU,71.9667,102.5,47.55,69,100,10.31,overcast clouds
311,Along,IN,28.1667,94.7667,78.17,96,24,0.69,few clouds
312,Muros,ES,42.7762,-9.0603,84.69,65,46,15.12,scattered clouds
313,Hobyo,SO,5.3505,48.5268,76.6,80,42,24.52,scattered clouds
314,Port Hardy,CA,50.6996,-127.4199,61.16,91,87,1.83,overcast clouds
315,Wuwei,CN,37.9281,102.6414,73.76,55,100,6.76,overcast clouds
316,Cap Malheureux,MU,-19.9842,57.6142,71.47,72,32,5.01,scattered clouds
317,Lata,PT,40.1629,-8.3327,84.49,48,1,12.24,clear sky
318,Nargana,PA,9.4428,-78.5906,81.46,76,92,1.95,overcast clouds
319,Kahului,US,20.8947,-156.47,76.84,85,3,3.0,clear sky
320,Palana,RU,59.1167,159.9667,50.34,96,100,8.21,moderate rain
321,Chenghai,CN,23.4632,116.768,86.23,71,6,2.19,clear sky
322,Sandpoint,US,48.2766,-116.5533,75.72,62,100,1.99,overcast clouds
323,Nabire,ID,-3.3667,135.4833,75.76,90,78,3.11,broken clouds
324,Nalut,LY,30.3333,10.85,95.0,15,0,7.72,clear sky
325,New Norfolk,AU,-42.7826,147.0587,38.71,79,44,1.01,scattered clouds
326,Asau,RO,46.4333,26.4,69.28,82,100,7.58,light rain
327,Nueva Loja,EC,0.0847,-76.8828,74.7,69,85,2.86,overcast clouds
328,Binzhou,CN,37.3667,118.0167,69.37,79,74,8.34,broken clouds
329,San Quintin,MX,30.4833,-115.95,71.28,80,66,11.54,broken clouds
330,Juneau,US,58.3019,-134.4197,66.11,98,99,3.4,overcast clouds
331,Mikun,RU,62.3547,50.0771,66.79,60,80,4.45,broken clouds
332,Yabelo,ET,4.8833,38.0833,68.14,40,44,13.96,scattered clouds
333,Bhinmal,IN,25.0,72.25,81.54,78,100,10.78,overcast clouds
334,Shache,CN,38.4167,77.2406,74.71,56,100,25.34,overcast clouds
335,Ilulissat,GL,69.2167,-51.1,38.64,87,100,7.85,moderate rain
336,Qandala,SO,11.472,49.8728,89.4,57,37,2.37,scattered clouds
337,Loncoche,CL,-39.3667,-72.6333,57.85,64,75,1.52,broken clouds
338,Huaicheng,CN,23.9051,112.1931,79.72,82,97,0.31,overcast clouds
339,Grootfontein,NA,-19.5667,18.1167,73.8,8,5,5.68,clear sky
340,Hofn,IS,64.2539,-15.2082,50.14,85,100,4.85,overcast clouds
341,Meulaboh,ID,4.1363,96.1285,78.13,83,100,9.71,light rain
342,Abonnema,NG,4.7084,6.7931,81.91,68,99,13.4,light rain
343,Libertador General San Martin,AR,-23.8064,-64.7876,73.98,18,0,4.63,clear sky
344,Kendari,ID,-3.945,122.4989,72.05,89,20,2.91,few clouds
345,Fort Nelson,CA,58.8053,-122.7002,66.65,58,7,1.99,clear sky
346,Yar-Sale,RU,66.8333,70.8333,62.71,73,83,6.73,broken clouds
347,Klaksvik,FO,62.2266,-6.589,51.22,82,94,16.73,overcast clouds
348,Beloha,MG,-25.1667,45.05,64.94,69,10,13.82,clear sky
349,Eureka,US,40.8021,-124.1637,70.2,91,0,3.0,clear sky
350,Xuddur,SO,4.1213,43.8894,83.93,36,6,14.41,clear sky
351,Oranjemund,NA,-28.55,16.4333,61.48,62,0,9.15,clear sky
352,Hasaki,JP,35.7333,140.8333,75.29,94,77,0.92,broken clouds
353,Whitianga,NZ,-36.8333,175.7,51.51,90,48,4.52,light rain
354,Aripuana,BR,-9.1667,-60.6333,95.23,24,53,4.21,broken clouds
355,Yarega,RU,63.4354,53.5765,65.66,53,80,4.43,broken clouds
356,Agadez,NE,19.75,10.25,103.62,8,10,15.55,clear sky
357,Berlevag,NO,70.8578,29.0864,60.13,81,100,18.37,overcast clouds
358,Banda Aceh,ID,5.5577,95.3222,79.47,79,100,11.18,overcast clouds
359,Port Macquarie,AU,-31.4333,152.9167,48.88,83,7,6.71,clear sky
360,Vila,PT,42.0304,-8.1588,83.7,38,62,7.72,broken clouds
361,Kamennomostskoye,RU,43.7372,43.0514,70.2,48,56,11.21,broken clouds
362,Chardara,KZ,41.2547,67.9692,73.18,25,0,6.13,clear sky
363,Sayansk,RU,54.1088,102.1648,48.0,90,100,1.7,overcast clouds
364,Arnissa,GR,40.8,21.8333,64.54,57,73,4.09,broken clouds
365,Cheremkhovo,RU,53.1561,103.0675,49.46,94,87,3.67,moderate rain
366,Oktyabrskoye,RU,43.0645,44.7417,76.35,47,97,5.17,overcast clouds
367,Turukhansk,RU,65.8167,87.9833,51.44,64,100,5.64,overcast clouds
368,West Bay,KY,19.3667,-81.4167,86.05,79,80,1.99,broken clouds
369,Tigil,RU,57.8,158.6667,54.1,92,82,5.99,broken clouds
370,Anchorage,US,61.2181,-149.9003,56.19,95,100,3.0,overcast clouds
371,Cherskiy,RU,68.75,161.3,54.59,85,100,13.38,light rain
372,Valparaiso,CL,-33.0393,-71.6273,62.01,100,85,7.16,overcast clouds
373,Luzhou,CN,28.8724,105.4405,89.6,52,62,2.75,broken clouds
374,Mount Gambier,AU,-37.8333,140.7667,43.52,72,72,12.08,broken clouds
375,Maceio,BR,-9.6658,-35.7353,78.1,72,75,13.62,broken clouds
376,Westport,US,41.1415,-73.3579,77.09,90,100,7.0,overcast clouds
377,Raga,SS,8.4596,25.678,76.64,88,83,3.06,light rain
378,Dixon,US,38.4455,-121.8233,74.89,64,0,3.22,clear sky
379,Karratha,AU,-20.7377,116.8463,72.84,32,0,6.85,light rain
380,Houma,US,29.5958,-90.7195,90.01,76,97,8.01,overcast clouds
381,Labuhan,ID,-6.8844,112.2051,78.35,76,44,5.97,scattered clouds
382,Negombo,LK,7.2083,79.8358,79.57,85,100,12.95,overcast clouds
383,Quang Ngai,VN,15.1167,108.8,78.28,90,63,5.66,broken clouds
384,Oktyabrskiy,RU,54.4815,53.471,71.51,54,4,4.12,clear sky
385,Akranes,IS,64.3218,-22.0749,50.77,75,100,4.68,overcast clouds
386,Mae Hong Son,TH,19.3003,97.9685,74.89,99,98,2.13,overcast clouds
387,Berdigestyakh,RU,62.0989,126.6992,41.86,90,38,5.39,scattered clouds
388,Beyneu,KZ,45.3167,55.2,84.07,26,1,6.78,clear sky
389,Kapit,MY,2.0167,112.9333,73.65,99,77,0.94,broken clouds
390,Osa,RU,57.2829,55.4567,67.06,62,25,3.4,scattered clouds
391,Huambo,AO,-12.7761,15.7392,81.28,13,18,1.99,few clouds
392,Chapeco,BR,-27.0964,-52.6183,69.48,56,0,0.69,clear sky
393,Sobolevo,RU,54.4299,31.8996,70.74,64,2,7.96,clear sky
394,Constitucion,CL,-35.3333,-72.4167,58.33,73,85,5.95,overcast clouds
395,Agapovka,RU,53.2973,59.1348,68.25,56,98,3.91,overcast clouds
396,Cha Grande,BR,-8.2383,-35.4617,73.8,78,100,14.58,overcast clouds
397,Muravlenko,RU,63.7898,74.523,56.77,87,100,5.91,overcast clouds
398,Henties Bay,NA,-22.116,14.2845,63.81,55,1,1.34,clear sky
399,Dubbo,AU,-32.25,148.6167,45.32,77,21,6.42,few clouds
400,Basoko,CD,1.2391,23.616,76.48,86,90,4.45,moderate rain
401,Gharo,PK,24.7424,67.5856,83.28,76,100,14.47,overcast clouds
402,High Level,CA,58.5169,-117.136,67.41,57,8,4.85,clear sky
403,Mezen,RU,65.8522,44.24,70.52,47,98,10.27,overcast clouds
404,Lufilufi,WS,-13.8745,-171.5986,78.24,79,31,12.97,scattered clouds
405,Arkhangelsk,RU,64.5401,40.5433,73.11,49,86,12.26,overcast clouds
406,Kloulklubed,PW,7.0419,134.2556,84.29,72,83,11.86,broken clouds
407,Seymchan,RU,62.8833,152.4333,52.5,78,88,4.79,overcast clouds
408,Iquique,CL,-20.2208,-70.1431,64.24,61,2,7.58,clear sky
409,Lavumisa,SZ,-27.31,31.892,67.53,45,0,5.75,clear sky
410,Ankang,CN,32.68,109.0172,87.76,62,100,8.1,overcast clouds
411,Pisco,PE,-13.7,-76.2167,59.02,87,65,7.36,broken clouds
412,Raudeberg,NO,61.9875,5.1352,59.95,70,47,11.95,scattered clouds
413,Lhokseumawe,ID,5.1801,97.1507,79.61,81,99,2.44,overcast clouds
414,Gayeri,BF,12.6497,0.4931,89.91,57,61,4.38,broken clouds
415,Vao,NC,-22.6667,167.4833,68.83,83,100,17.85,overcast clouds
416,Casambalangan,PH,18.3765,122.1274,78.49,88,91,5.12,overcast clouds
417,Boyolangu,ID,-8.1181,111.8935,74.03,91,83,5.61,broken clouds
418,Ukiah,US,39.1502,-123.2078,76.37,54,0,1.01,clear sky
419,Namatanai,PG,-3.6667,152.4333,78.37,80,41,6.08,scattered clouds
420,Kota Tinggi,MY,1.7381,103.8999,82.29,93,56,2.13,broken clouds
421,Santana Do Livramento,BR,-30.8908,-55.5328,61.03,62,6,8.05,clear sky
422,Itainopolis,BR,-7.4469,-41.4783,93.25,25,81,10.67,broken clouds
423,Synya,RU,65.3718,58.0387,62.89,52,4,3.98,clear sky
424,Umm Lajj,SA,25.0213,37.2685,90.41,49,0,7.56,clear sky
425,Bischofswerda,DE,51.1277,14.1797,65.08,77,100,2.86,overcast clouds
426,Sredniy Ikorets,RU,51.0675,39.7584,82.44,21,71,10.04,broken clouds
427,Samarai,PG,-10.6167,150.6667,78.55,83,99,10.78,light rain
428,Yankton,US,42.8711,-97.3973,78.12,77,0,7.29,clear sky
429,San Juan De Uraba,CO,8.7592,-76.5297,84.58,67,100,4.63,overcast clouds
430,Radom,PL,51.4025,21.1471,80.13,57,56,1.99,broken clouds
431,Ruteng,ID,-8.6136,120.4721,57.87,90,27,2.44,scattered clouds
432,Kondinskoye,RU,59.6481,67.41,64.94,88,81,4.5,light rain
433,Bloomington,US,44.8408,-93.2983,80.33,61,54,1.01,broken clouds
434,Kavaratti,IN,10.5669,72.642,81.21,80,97,18.23,moderate rain
435,Marsh Harbour,BS,26.5412,-77.0636,84.72,70,16,10.94,few clouds
436,Pathein,MM,16.7833,94.7333,74.73,97,100,3.31,overcast clouds
437,Hami,CN,42.8,93.45,76.39,18,99,13.82,overcast clouds
438,Kinkala,CG,-4.3614,14.7644,81.68,54,99,1.74,overcast clouds
439,Sydney,AU,-33.8679,151.2073,57.63,61,2,3.0,clear sky
440,Dryden,CA,49.7833,-92.7503,71.49,68,92,4.36,overcast clouds
441,Srednekolymsk,RU,67.45,153.6833,56.57,89,100,3.53,light rain
442,Cornelio Procopio,BR,-23.1811,-50.6467,70.16,54,0,7.9,clear sky
443,Milkovo,RU,54.7167,158.6167,53.22,82,50,7.25,scattered clouds
444,Goderich,CA,43.7501,-81.7165,73.9,84,98,8.52,overcast clouds
445,Save,BJ,8.0425,2.486,83.97,68,85,5.21,light rain
446,Maumere,ID,-8.6199,122.2111,76.96,76,29,10.04,scattered clouds
447,South Bend,US,41.6834,-86.25,76.21,82,2,1.99,clear sky
448,Sechura,PE,-5.5569,-80.8222,73.2,59,6,8.3,clear sky
449,Joshimath,IN,30.5667,79.5667,70.38,85,76,1.54,moderate rain
450,Peto,MX,20.1333,-88.9167,91.36,46,14,4.68,few clouds
451,Perth,AU,-31.9333,115.8333,52.09,63,1,13.73,clear sky
452,Davila,PH,18.4726,120.5763,81.41,85,100,14.27,overcast clouds
453,Krasnoselkup,RU,65.7,82.4667,54.68,69,100,9.42,overcast clouds
454,Konstantinovka,RU,49.6167,127.9833,54.66,90,100,11.23,overcast clouds
455,Daigo,JP,36.7667,140.35,71.71,99,91,1.63,overcast clouds
456,Ariquemes,BR,-9.9133,-63.0408,92.97,27,64,5.37,broken clouds
457,Flagstaff,US,35.1981,-111.6513,73.56,56,8,1.01,clear sky
458,Vengerovo,RU,55.6848,76.7471,52.18,73,97,6.58,overcast clouds
459,Aguas Vermelhas,BR,-15.7472,-41.46,67.6,66,100,6.58,overcast clouds
460,Timra,SE,62.487,17.3257,63.63,58,35,6.08,scattered clouds
461,Cortes,ES,41.9395,-1.4396,83.98,41,6,26.64,clear sky
462,Norman Wells,CA,65.282,-126.8329,52.14,73,100,5.73,overcast clouds
463,Yanji,CN,42.9075,129.5078,57.04,92,42,8.28,scattered clouds
464,Margate,GB,51.3813,1.3862,74.1,61,71,12.03,broken clouds
465,Osakarovka,KZ,50.565,72.5692,56.48,66,92,9.24,overcast clouds
466,Fairbanks,US,64.8378,-147.7164,60.3,85,98,3.11,overcast clouds
467,Kanzaki,JP,33.3,130.3667,83.05,61,100,0.27,overcast clouds
468,Seoul,KR,37.5683,126.9778,76.51,90,94,3.53,overcast clouds
469,Bubaque,GW,11.2833,-15.8333,82.02,72,13,8.77,few clouds
470,Seydi,TM,39.4816,62.9137,77.09,11,0,12.53,clear sky
471,Charters Towers,AU,-20.1,146.2667,57.49,91,0,7.23,clear sky
472,Aginskoye,RU,51.1,114.53,49.39,69,69,9.33,broken clouds
473,Abrau-Dyurso,RU,44.69,37.59,85.48,60,47,8.41,scattered clouds
474,Kindu,CD,-2.95,25.95,84.4,51,43,1.12,scattered clouds
475,Lubango,AO,-14.9172,13.4925,76.28,15,65,8.3,broken clouds
476,Port-Gentil,GA,-0.7193,8.7815,75.38,86,100,20.11,overcast clouds
477,Mao,ES,39.8885,4.2658,80.22,62,32,16.82,scattered clouds
478,Kohima,IN,25.6667,94.1167,66.87,97,22,2.42,few clouds
479,Ahipara,NZ,-35.1667,173.1667,56.43,86,53,17.25,broken clouds
480,Baringo,KE,0.4667,35.9667,76.42,51,76,8.93,broken clouds
481,Guerrero Negro,MX,27.9769,-114.0611,72.97,76,96,11.07,overcast clouds
482,Qui Nhon,VN,13.7667,109.2333,80.82,86,100,3.49,overcast clouds
483,Rafaela,AR,-31.2503,-61.4867,69.01,25,55,1.99,broken clouds
484,Businga,CD,3.3333,20.8833,80.13,71,73,4.0,light rain
485,Salvador,SV,13.8333,-88.9167,83.05,68,59,2.06,broken clouds
486,Eidsvag,NO,62.7767,8.0668,58.19,75,49,4.5,scattered clouds
487,Geraldton,AU,-28.7667,114.6,60.85,43,0,20.33,clear sky
488,Gorontalo,ID,0.5412,123.0595,75.06,93,99,3.85,light rain
489,Eyl,SO,7.9803,49.8164,77.2,75,86,24.67,overcast clouds
490,Miracema,BR,-21.4122,-42.1967,76.86,38,26,5.82,scattered clouds
491,Nogales,MX,31.3086,-110.9422,76.71,73,40,3.85,scattered clouds
492,Russell,US,32.3502,-85.1999,79.02,79,100,5.14,overcast clouds
493,Aitape,PG,-3.1374,142.3475,77.25,88,76,7.83,broken clouds
494,Reconquista,AR,-29.15,-59.65,67.12,44,98,5.93,overcast clouds
495,Zyryanka,RU,65.75,150.85,54.59,92,100,5.68,overcast clouds
496,Hirara,JP,24.8,125.2833,85.06,79,14,14.99,few clouds
497,Jatiroto,ID,-7.8833,111.1167,71.8,88,73,3.24,broken clouds
498,Vila Franca Do Campo,PT,37.7167,-25.4333,73.8,65,90,3.22,overcast clouds
499,Alofi,NU,-19.0595,-169.9187,73.92,71,0,4.27,clear sky
500,San Borja,BO,-14.8167,-66.85,84.85,22,0,4.72,clear sky
501,Maltahohe,NA,-24.8333,16.9833,72.37,7,0,4.72,clear sky
502,Krasnomayskiy,RU,57.6194,34.4099,71.2,57,85,4.65,overcast clouds
503,Rajapolah,ID,-7.221,108.1896,68.95,98,42,1.59,scattered clouds
504,Hanzhong,CN,33.0728,107.0303,80.13,75,100,0.74,overcast clouds
505,Almaznyy,RU,48.0448,40.045,84.51,20,18,16.73,few clouds
506,Beirut,LB,33.8889,35.4944,80.38,70,0,9.44,clear sky
507,Khangarh,PK,29.9173,71.1618,88.48,61,51,5.3,broken clouds
508,Itoman,JP,26.1247,127.6694,84.4,79,7,8.25,clear sky
509,Half Moon Bay,US,37.4636,-122.4286,71.58,81,12,5.7,few clouds
510,Southbridge,US,42.0751,-72.0334,73.22,96,100,3.0,overcast clouds
511,Inirida,CO,3.8653,-67.9239,78.82,80,97,2.73,overcast clouds
512,Nelson Bay,AU,-32.7167,152.15,59.0,88,92,4.0,overcast clouds
513,Egvekinot,RU,66.3167,-179.1667,41.23,76,0,2.08,clear sky
514,Chino Valley,US,34.7575,-112.4538,81.1,59,39,1.01,scattered clouds
515,Ferrol,ES,43.4832,-8.2369,73.24,91,68,12.46,broken clouds
516,Winnemucca,US,40.973,-117.7357,81.05,19,0,6.8,clear sky
517,Cartagena Del Chaira,CO,1.3349,-74.8429,80.58,49,81,5.46,broken clouds
518,Udachnyy,RU,66.4167,112.4,37.89,99,100,5.19,overcast clouds
519,Ingham,US,42.6,-84.3833,76.15,69,14,10.16,few clouds
520,Kayes,ML,14.0,-11.0,86.61,62,43,5.82,scattered clouds
521,La Ronge,CA,55.1001,-105.2842,61.0,63,61,4.43,broken clouds
522,Tuy Hoa,VN,13.0833,109.3,79.43,87,56,4.32,broken clouds
523,Moba,CN,33.2288,105.0179,64.02,95,100,2.37,overcast clouds
524,Tautira,PF,-17.7333,-149.15,76.5,76,100,15.77,light rain
525,Thunder Bay,CA,48.4001,-89.3168,76.05,49,64,4.94,broken clouds
526,Kutum,SD,14.2,24.6667,84.02,41,86,8.52,overcast clouds
527,Ust-Ilimsk,RU,58.0006,102.6619,44.96,83,99,4.94,overcast clouds
528,Tuatapere,NZ,-46.1333,167.6833,42.03,90,100,5.75,overcast clouds
529,Gazanjyk,TM,39.2446,55.5154,79.92,11,0,12.33,clear sky
530,Emerald,AU,-23.5333,148.1667,54.34,80,7,7.34,clear sky
531,Thoen,TH,17.6129,99.2161,75.45,91,100,2.77,overcast clouds
532,Conde,BR,-7.2597,-34.9075,78.06,76,85,18.37,overcast clouds
533,Mattru,SL,7.6244,-11.8332,79.68,85,74,6.4,light rain
534,Port Lincoln,AU,-34.7333,135.8667,50.59,53,86,23.26,overcast clouds
535,Kapan,AM,39.2075,46.4058,72.14,45,1,1.52,clear sky
536,Kryve Ozero,UA,47.9524,30.3493,85.42,32,1,8.68,clear sky
537,Progreso,MX,21.2833,-89.6667,89.11,62,5,8.75,clear sky
538,Carauari,BR,-4.8828,-66.8958,91.63,34,16,3.47,few clouds
539,Price,US,39.5994,-110.8107,73.11,35,3,2.17,clear sky
540,Moose Factory,CA,51.2585,-80.6094,54.82,84,100,8.7,overcast clouds
541,Santa Rita Do Sapucai,BR,-22.2522,-45.7033,78.08,33,6,1.9,clear sky
542,Ribeira Grande,PT,38.5167,-28.7,73.76,76,42,10.89,scattered clouds
543,Praia,CV,14.9215,-23.5087,81.25,79,99,8.68,overcast clouds
544,Atlantic City,US,39.3643,-74.4229,81.18,80,88,7.0,overcast clouds
545,Ust-Kulom,RU,61.6864,53.6902,64.8,57,78,2.26,broken clouds
546,Mattawa,US,46.7379,-119.9028,80.02,25,98,6.49,overcast clouds
547,Toms River,US,39.9537,-74.1979,81.03,84,95,3.0,overcast clouds
548,Svetlyy,RU,54.675,20.1347,68.56,75,99,11.52,overcast clouds
549,Shingu,JP,33.7333,135.9833,77.86,92,100,3.51,overcast clouds
550,Lodwar,KE,3.1191,35.5973,90.34,26,89,10.47,overcast clouds
551,Vizianagaram,IN,18.1167,83.4167,82.9,78,87,2.19,overcast clouds
552,Biu,NG,10.6129,12.1946,76.73,74,100,3.51,light rain
553,Castro Verde,PT,37.6983,-8.0858,99.55,17,4,5.5,clear sky
554,Kurud,IN,20.8322,81.7214,74.98,86,11,7.65,light rain
555,Nishihara,JP,26.1842,127.7558,83.68,83,7,6.13,clear sky
556,Salym,RU,60.0625,71.4789,58.6,92,95,1.01,overcast clouds
557,Narsaq,GL,60.9167,-46.05,53.82,48,55,3.09,broken clouds
558,Gobabis,NA,-22.45,18.9667,71.55,6,0,8.99,clear sky
559,Divo,CI,5.8397,-5.36,78.1,77,99,5.19,light rain
560,Pemba,MZ,-12.974,40.5178,75.31,81,79,23.98,broken clouds
561,Coahuayana,MX,18.7333,-103.6833,88.14,60,73,2.13,broken clouds
562,Xinzhou,CN,38.4092,112.7333,65.35,55,50,2.37,scattered clouds
563,Diamantino,BR,-14.4086,-56.4461,91.92,20,74,8.08,broken clouds
564,Todos Santos,MX,23.45,-110.2167,88.3,87,82,6.33,broken clouds
565,Solnechnyy,RU,50.7214,136.6319,55.17,100,100,5.68,light rain
566,Atyrau,KZ,47.1167,51.8833,84.79,20,0,15.66,clear sky
567,Surin,TH,14.8818,103.4936,78.3,88,100,6.85,overcast clouds
568,Katobu,ID,-4.9408,122.5276,71.55,88,25,3.8,scattered clouds
569,Krasnokamensk,RU,50.0979,118.0369,45.43,81,6,6.08,clear sky
570,Maniitsoq,GL,65.4167,-52.9,44.17,66,100,16.58,overcast clouds
571,Bodden Town,KY,19.2833,-81.25,85.98,77,69,4.0,broken clouds
572,Mahon,ES,39.8885,4.2658,80.22,62,32,16.82,scattered clouds
573,Savannah Bight,HN,16.45,-85.85,82.99,72,51,3.91,broken clouds
574,Mackay,AU,-21.15,149.2,65.68,74,100,9.57,overcast clouds
575,Tazovskiy,RU,67.4667,78.7,53.29,96,97,11.92,overcast clouds
576,Tucuman,AR,-26.8241,-65.2226,71.49,17,0,5.68,clear sky
577,Pochutla,MX,15.7432,-96.4661,84.81,56,48,2.89,scattered clouds
578,Ulaangom,MN,49.9811,92.0667,52.05,45,8,2.66,clear sky
579,Portland,US,45.5234,-122.6762,74.91,63,0,5.01,clear sky
580,Rocky Mountain House,CA,52.3668,-114.9188,65.03,80,14,7.36,few clouds
581,Akdepe,TM,42.0551,59.3788,73.49,24,0,16.08,clear sky
582,Bela,IN,25.9333,81.9833,82.26,76,79,6.51,broken clouds
583,Gidole,ET,5.65,37.3667,67.03,41,69,3.04,broken clouds
584,Alim,PH,9.5649,122.4876,80.56,81,100,7.0,overcast clouds
585,Rio Gallegos,AR,-51.6226,-69.2181,40.3,70,100,9.35,overcast clouds
586,Klyuchi,RU,52.2667,79.1667,53.1,64,70,7.25,broken clouds
587,Babushkin,RU,51.7122,105.8647,53.11,68,3,8.34,clear sky
588,Labytnangi,RU,66.6572,66.4183,62.64,61,9,6.17,clear sky
589,Manicore,BR,-5.8092,-61.3003,95.88,25,26,5.08,scattered clouds
590,Saint-Francois,FR,46.4154,3.9054,73.67,67,10,5.59,clear sky
591,Ormara,PK,25.2088,64.6357,81.39,86,98,13.2,overcast clouds
592,Padang,ID,-0.9492,100.3543,77.88,86,32,3.62,moderate rain
593,Jishou,CN,28.3167,109.7167,82.54,68,100,2.1,overcast clouds
594,Andilamena,MG,-17.0167,48.5833,56.48,92,29,9.26,scattered clouds
595,Angoche,MZ,-16.2325,39.9086,72.61,70,100,11.79,overcast clouds
596,Chato,TZ,-2.6378,31.7669,75.24,57,28,8.25,scattered clouds
597,Wakkanai,JP,45.4094,141.6739,70.68,68,100,9.19,overcast clouds
598,Porto Novo,BJ,6.4965,2.6036,80.46,71,99,13.04,overcast clouds
599,Cochrane,CA,51.1834,-114.4687,68.9,71,15,3.87,few clouds
600,West Wendover,US,40.7391,-114.0733,80.62,33,1,3.69,clear sky
601,Ambon,ID,-3.6954,128.1814,78.89,82,14,16.02,few clouds
602,Bikramganj,IN,25.2,84.25,87.57,63,75,5.66,broken clouds
603,Puerto Del Rosario,ES,28.5004,-13.8627,79.86,62,45,15.66,scattered clouds
604,Sao Jose Da Coroa Grande,BR,-8.8978,-35.1478,77.16,80,85,13.94,overcast clouds
605,Medvedka,RU,61.1629,46.387,68.16,67,75,4.92,broken clouds
606,Leirvik,NO,59.7798,5.5005,63.63,67,93,3.36,overcast clouds
607,Tampere,FI,61.4991,23.7871,70.16,47,8,6.33,clear sky
608,The Valley,AI,18.217,-63.0578,87.1,74,3,12.55,clear sky
609,Yangambi,CD,0.8102,24.4336,73.53,92,100,5.57,moderate rain
610,Cap-Aux-Meules,CA,47.3821,-61.8597,69.35,83,49,18.86,scattered clouds
611,Lanzhou,CN,36.0564,103.7922,73.99,66,98,3.51,overcast clouds
612,Araouane,ML,18.9048,-3.5265,105.17,19,6,8.63,clear sky
613,Opuwo,NA,-18.0607,13.84,82.45,7,0,3.62,clear sky
614,Skjervoy,NO,70.0311,20.9714,54.34,80,100,7.49,overcast clouds
615,Kamaishi,JP,39.2667,141.8833,73.87,94,99,6.78,overcast clouds
616,Olafsvik,IS,64.8945,-23.7142,49.19,70,100,9.4,overcast clouds
617,Reinosa,ES,42.9996,-4.138,64.45,60,94,9.04,overcast clouds
618,Prachuap Khiri Khan,TH,12.2167,99.75,82.58,78,100,3.42,overcast clouds
619,San Policarpo,PH,12.1791,125.5072,78.08,88,100,7.0,overcast clouds
620,Flin Flon,CA,54.7682,-101.865,60.01,56,100,6.49,overcast clouds
621,Soe,ID,-9.8607,124.284,62.89,87,76,5.21,broken clouds
622,Zhezkazgan,KZ,47.8043,67.7144,72.93,29,55,13.71,broken clouds
623,Mana,GF,5.6592,-53.7767,79.95,86,98,8.55,overcast clouds
624,Puerto Madryn,AR,-42.7692,-65.0385,61.61,37,100,28.68,overcast clouds
625,Gat,IL,31.61,34.7642,84.81,100,0,8.1,clear sky
626,Biltine,TD,14.5333,20.9167,90.16,45,95,3.78,overcast clouds
627,Isangel,VU,-19.55,169.2667,70.59,77,46,10.92,scattered clouds
628,Pimentel,PE,-6.8367,-79.9342,65.68,77,84,12.17,broken clouds
629,Parry Sound,CA,45.3501,-80.033,71.26,86,96,4.25,overcast clouds
630,Gamba,GA,-2.65,10.0,74.57,83,100,11.14,overcast clouds
631,Merauke,ID,-8.4667,140.3333,76.1,86,88,13.09,overcast clouds
632,Goundam,ML,16.4145,-3.6708,99.5,29,12,6.89,few clouds
633,Kaeo,NZ,-35.1,173.7833,53.33,94,56,11.05,broken clouds
634,Yacuiba,BO,-22.038,-63.6797,73.94,17,0,8.08,clear sky
635,Sistranda,NO,63.7256,8.834,55.2,72,8,23.42,clear sky
636,Rundu,NA,-17.9333,19.7667,77.49,11,12,3.15,few clouds
637,Nimaparha,IN,20.0667,86.0167,84.04,75,100,6.51,overcast clouds
638,North Platte,US,41.1239,-100.7654,82.11,50,0,7.0,clear sky
639,Harper,LR,4.375,-7.7169,78.37,79,86,12.75,overcast clouds
640,Grand Baie,MU,-20.0182,57.5802,72.07,72,28,5.01,scattered clouds
641,Morehead,US,37.2711,-87.1764,79.79,79,8,1.01,clear sky
642,Lingao,CN,19.9103,109.6859,81.03,86,99,6.13,overcast clouds
643,Marrakesh,MA,31.6315,-8.0083,106.77,9,5,12.68,clear sky
644,Safford,US,32.834,-109.7076,82.11,69,0,3.44,clear sky
645,Iba,PH,15.3667,120.0333,76.69,95,100,13.33,moderate rain
646,Abu Samrah,SY,35.3029,37.1841,86.52,33,0,15.37,clear sky
647,Siderno,IT,38.2779,16.302,79.34,67,23,4.27,few clouds
648,Tambopata,PE,-12.7333,-69.1833,83.95,24,19,3.58,few clouds
649,Umm Kaddadah,SD,13.6017,26.6876,91.26,38,47,14.12,scattered clouds
650,Nizhniy Kuranakh,RU,58.8353,125.4869,48.76,88,93,3.24,overcast clouds
651,Keti Bandar,PK,24.1447,67.4497,82.49,81,100,13.96,overcast clouds
652,Port Keats,AU,-14.25,129.55,70.3,31,3,7.87,clear sky
653,Karpathos,GR,35.507,27.2132,79.65,72,18,7.27,few clouds
654,Aquin,HT,18.2833,-73.4,84.38,71,98,9.13,overcast clouds
655,Benemerito De Las Americas,MX,16.5167,-90.6439,85.91,58,63,3.04,broken clouds
656,Jumla,NP,29.2747,82.1838,63.48,87,61,2.39,broken clouds
657,Bara,NG,10.3744,10.7288,81.54,65,91,7.14,overcast clouds
658,Ola,RU,59.5833,151.2833,52.05,95,100,9.01,moderate rain
659,Whittlesea,ZA,-32.1759,26.8244,56.34,40,7,9.17,clear sky
660,Ikom,NG,5.9667,8.7063,78.8,91,100,3.49,moderate rain
661,Chhagalnaiya,BD,23.03,91.5069,80.91,85,100,4.74,moderate rain
662,Merta,IN,26.65,74.0333,77.92,85,100,4.76,light rain
663,Calvinia,ZA,-31.4707,19.776,64.38,24,14,3.91,few clouds
664,Farmington,US,36.7281,-108.2187,77.77,51,6,5.99,clear sky
665,Caravelas,BR,-17.7125,-39.2481,70.43,88,100,4.12,overcast clouds
666,Forio,IT,40.7342,13.8646,82.81,71,86,3.0,overcast clouds
667,Hit,IQ,33.6416,42.8251,99.55,15,0,8.84,clear sky
668,Amberley,US,39.2048,-84.428,73.53,83,100,6.91,overcast clouds
669,Moshny,UA,49.5147,31.7476,80.65,35,29,4.72,scattered clouds
670,Qasigiannguit,GL,68.8193,-51.1922,44.85,87,100,12.64,moderate rain
671,Lasa,IT,46.6166,10.7002,76.69,42,37,5.73,scattered clouds
672,San Matias,BO,-16.3667,-58.4,90.12,31,74,5.99,broken clouds
673,Macarthur,PH,10.8347,124.9953,78.6,84,100,4.14,overcast clouds
674,San Miguel,SV,13.4833,-88.1833,87.62,62,73,1.03,broken clouds
675,Yenagoa,NG,4.9247,6.2642,80.56,75,100,9.37,light rain
676,Luanda,AO,-8.8368,13.2343,80.6,57,0,9.22,clear sky
677,Santa Lucia,ES,27.9117,-15.5407,77.76,58,38,13.24,scattered clouds
678,Saravan,AM,39.7196,45.6483,65.7,42,45,8.84,scattered clouds
679,Barreirinha,BR,-2.7933,-57.07,97.68,29,76,1.99,broken clouds
680,Nhulunbuy,AU,-12.2333,136.7667,71.6,78,0,9.22,clear sky
681,Olenino,RU,56.2092,33.4889,72.03,50,94,7.85,overcast clouds
